[
    {
        "title": "Commercial Directors",
        "functionType": "Sales",
        "jobType": "Full-time, Part-time",
        "address": "Naritaweg 51",
        "postalCode": "1043 BP",
        "city": "Amsterdam",
        "country": "The Netherlands",
        "latitude": "52.3875172",
        "longitude": "4.8344343",
        "link": "https://ofdataanalytics.com/careers/",
        "datePublished": "24 February 2019",
        "referenceNumber": "2018A12",
        "emailAddress": "careers@ofbda.com",
        "description": "This should be a short description."
    },
    {
        "title": "Data Scientists / Engineers (or willing to become one)",
        "functionType": "Data Science",
        "jobType": "Full-time, Part-time",
        "address": "Naritaweg 51",
        "postalCode": "1043 BP",
        "city": "Amsterdam",
        "country": "The Netherlands",
        "latitude": "52.3875172",
        "longitude": "4.8344343",
        "link": "https://ofdataanalytics.com/careers/",
        "datePublished": "24 February 2019",
        "referenceNumber": "2018A12",
        "emailAddress": "careers@ofbda.com",
        "description": "This should be a short description."
    },
    {
        "title": "Commercial Directors",
        "functionType": "Sales",
        "jobType": "Full-time, Part-time",
        "address": "Boompjes 40",
        "postalCode": "3011 XB",
        "city": "Rotterdam",
        "country": "The Netherlands",        
        "latitude": "51.916884",
        "longitude": "4.4900698",
        "link": "https://ofdataanalytics.com/careers/",
        "datePublished": "24 February 2019",
        "referenceNumber": "2018A12",
        "emailAddress": "careers@ofbda.com",
        "description": "This should be a short description."
    },
    {
        "title": "Data Scientists / Engineers (or willing to become one)",
        "functionType": "Data Science",
        "jobType": "Full-time, Part-time",
        "address": "Boompjes 40",
        "postalCode": "3011 XB",
        "city": "Rotterdam",
        "country": "The Netherlands", 
        "latitude": "51.916884",
        "longitude": "4.4900698",
        "link": "https://ofdataanalytics.com/careers/",
        "datePublished": "24 February 2019",
        "referenceNumber": "2018A12",
        "emailAddress": "careers@ofbda.com",
        "description": "This should be a short description."
    }
]